{
  "animals": [
    { "id": 1, "name": "Ziggy", "breed": "Poodle"},
    { "id": 2, "name": "Gertrude", "breed": "German Shepherd" },
    { "id": 3, "name": "Valentina", "breed": "Pitbull" },
    { "id": 4, "name": "SweetPea", "breed": "Cocker Spaniel" },
    { "id": 5, "name": "Misty", "breed": "Maltese" },
    { "id": 6, "name": "Devora", "breed": "Dalmation" }
  ],
  "customers": [
    {
        "id": 1,
        "name": "Hannah Hall",
        "address": "7002 Chestnut Ct"
    },
    {
      "id": 2,
      "name": "Betty Boop",
      "address": "7002 Chestnut Ct"
    },
    {
      "id": 3,
      "name": "Melanie Matthews",
      "address": "7002 Chestnut Ct"
    },
    {
      "id": 4,
      "name": "Penelope Piper",
      "address": "7002 Chestnut Ct"
    },
    {
      "id": 5,
      "name": "Nancy Newborn",
      "address": "7002 Chestnut Ct"
    },
    {
      "id": 6,
      "name": "Hannah Hall",
      "address": "7002 Chestnut Ct"
    }
  ],
  "employees": [
    {
      "id": 1,
      "name": "Susie Stanley",
      "address": "123 Strawberry Lane",
      "location": 1
    },
    {
      "id": 2,
      "name": "Sylvia Plath",
      "address": "456 Strawberry Lane",
      "location": 2
    },
    {
      "id": 3,
      "name": "Phyllis Wheatley",
      "address": "321 Blueberry Lane",
      "location": 3
    },
    {
      "id": 4,
      "name": "Rupi Kaur",
      "address": "741 Raspberry Lane",
      "location": 4
    },
    {
      "id": 5,
      "name": "Emily Dickinson",
      "address": "789 Mango Road",
      "location": 5
    },
    {
      "id": 6,
      "name": "Maya Angelou",
      "address": "369 Kiwi Avenue",
      "location": 6
    }
  ],
  "locations": [
    {
        "id": 1,
        "name": "Nashville North",
        "address": "8422 Johnson Pike"
    },
    {
        "id": 2,
        "name": "Nashville South",
        "address": "209 Emory Drive"
    },
    {
        "id": 3,
        "name": "Franklin North",
        "address": "100 Northview Road"
    },
    {
        "id": 4,
        "name": "Franklin South",
        "address": "159 Balmoral Avenue"
    },
    {
        "id": 5,
        "name": "Fairview North",
        "address": "778 SilverSprings St"
    },
    {
        "id": 6,
        "name": "Fairview South",
        "address": "896 Bentley Lane"
    }
  ]
}
